City,Country,Cloudiness,Date,Humidity,Latitude,Longitude,Max Temperature,Wind Speed
Ribeira Grande,PT,100,1587771966,89,38.52,-28.7,62.17,12.06
Airai,TL,73,1587771966,61,-8.93,125.41,66.54,5.06
Cockburn Town,TC,0,1587771966,80,21.46,-71.14,79.7,20.0
San Patricio,MX,40,1587771966,83,19.22,-104.7,80.6,9.17
Port Alfred,ZA,94,1587771966,93,-33.59,26.89,66.0,3.0
Tuktoyaktuk,CA,90,1587771966,84,69.45,-133.04,-2.2,6.93
Kotido,UG,100,1587771967,56,2.98,34.13,68.09,7.36
Kapaa,US,75,1587771883,74,22.08,-159.32,80.6,16.11
Aykhal,RU,100,1587771967,51,66.0,111.5,37.4,6.71
Hermanus,ZA,23,1587771822,84,-34.42,19.23,61.03,12.71
Rikitea,PF,96,1587771967,68,-23.12,-134.97,76.98,8.5
Khatanga,RU,99,1587771968,98,71.97,102.5,33.03,2.86
Aswān,EG,0,1587771968,20,24.09,32.91,75.65,8.72
Barrow,US,1,1587771968,77,71.29,-156.79,5.0,14.99
Ranong,TH,40,1587771968,88,9.97,98.63,78.8,2.24
Esperance,AU,100,1587771968,100,-33.87,121.9,59.0,6.93
Jamestown,US,75,1587771963,61,42.1,-79.24,46.4,10.29
Ushuaia,AR,75,1587771968,64,-54.8,-68.3,37.4,9.17
Sitka,US,90,1587771969,81,57.05,-135.33,46.4,10.29
Laas,IT,5,1587771969,44,46.62,10.7,42.8,4.7
Sidi Ali,DZ,95,1587771969,71,36.1,0.42,63.41,9.57
Meulaboh,ID,98,1587771969,80,4.14,96.13,78.75,4.34
Cuxhaven,DE,70,1587771969,65,53.87,8.69,46.4,17.22
Guiratinga,BR,20,1587771970,77,-16.35,-53.76,72.32,3.65
São João da Barra,BR,0,1587771970,73,-21.64,-41.05,71.74,6.11
Brownfield,US,0,1587771970,17,33.18,-102.27,82.99,11.68
Dongsheng,CN,0,1587771970,25,39.82,109.98,46.89,11.07
Lebu,CL,94,1587771971,89,-37.62,-73.65,56.97,17.96
Kununurra,AU,15,1587771971,62,-15.77,128.73,84.2,4.43
Albany,US,40,1587771929,37,42.6,-73.97,50.0,3.36
Arrecife,ES,40,1587771971,63,28.96,-13.55,66.2,6.93
Bredasdorp,ZA,70,1587771971,93,-34.53,20.04,59.0,2.24
Lompoc,US,1,1587771972,35,34.64,-120.46,84.2,13.87
Palana,RU,6,1587771972,88,59.12,159.97,30.38,18.16
Sheregesh,RU,100,1587771972,35,52.92,87.99,51.91,4.94
Upernavik,GL,47,1587771972,95,72.79,-56.15,30.33,12.44
Nelson Bay,AU,0,1587771972,59,-32.72,152.15,68.0,12.75
Port-Cartier,CA,75,1587771973,44,50.03,-66.87,39.2,11.41
Bluff,NZ,69,1587771973,87,-46.6,168.33,52.0,11.99
Sarangani,PH,97,1587771973,80,5.4,125.46,82.98,23.76
Galveston,US,1,1587771762,74,29.37,-94.97,82.99,14.99
Atuona,PF,1,1587771973,72,-9.8,-139.03,81.66,13.24
Bolivar,US,100,1587771945,74,37.61,-93.41,64.99,9.95
Port Elizabeth,ZA,20,1587771973,88,-33.92,25.57,62.6,10.29
College,US,1,1587771973,34,64.86,-147.8,39.99,10.29
Buraidah,SA,0,1587771837,44,26.33,43.98,75.2,5.82
Yerbogachën,RU,100,1587771974,74,61.28,108.01,37.33,7.76
Nikolskoye,RU,26,1587771974,64,59.7,30.79,34.0,6.71
Inhambane,MZ,7,1587771974,83,-23.86,35.38,72.75,5.41
Coquimbo,CL,90,1587771941,67,-29.95,-71.34,62.6,4.7
Tautira,PF,12,1587771974,62,-17.73,-149.15,87.8,5.82
Colombo,LK,62,1587771975,87,6.93,79.85,79.25,1.59
Canutama,BR,48,1587771975,88,-6.53,-64.38,76.55,1.99
Puerto Ayora,EC,75,1587771975,66,-0.74,-90.35,84.2,13.87
Punta Arenas,CL,20,1587771692,65,-53.15,-70.92,41.0,14.99
Manaure,CO,47,1587771975,70,11.78,-72.44,81.97,20.67
Dikson,RU,97,1587771975,97,73.51,80.55,18.05,14.85
Leningradskiy,RU,0,1587771975,92,69.38,178.42,26.11,6.22
Tamandaré,BR,52,1587771975,79,-8.76,-35.1,80.08,10.47
Busselton,AU,100,1587771975,82,-33.65,115.33,61.0,9.33
São João Batista,BR,40,1587771976,83,-27.28,-48.85,75.0,9.17
Nueve de Julio,AR,78,1587771948,92,-35.44,-60.88,66.0,3.0
Fethiye,TR,40,1587771976,93,36.62,29.12,57.2,2.24
Port Blair,IN,72,1587771976,76,11.67,92.75,83.66,4.7
Homer,US,75,1587771976,61,59.64,-151.55,48.2,5.82
Ratnagiri,IN,53,1587771976,80,16.98,73.3,79.74,2.8
Mataura,NZ,60,1587771976,87,-46.19,168.86,52.0,11.99
Tiksi,RU,13,1587771976,95,71.69,128.87,22.71,5.84
Saint Paul Harbor,US,90,1587771976,87,57.79,-152.41,44.6,14.99
Tasiilaq,GL,44,1587771976,86,65.61,-37.64,33.8,4.7
Kashgar,CN,97,1587771976,58,39.45,75.98,57.2,11.18
Springbok,ZA,14,1587771977,51,-29.66,17.89,61.81,4.81
Avarua,CK,79,1587771977,74,-21.21,-159.78,82.4,8.05
Kahului,US,40,1587771859,48,20.89,-156.47,84.2,18.34
Samarai,PG,94,1587771977,72,-10.62,150.67,84.07,7.0
Karratha,AU,18,1587771977,57,-20.74,116.85,85.86,2.84
Nishihara,JP,75,1587771977,63,26.18,127.76,66.2,5.82
Ambilobe,MG,65,1587771977,86,-13.2,49.05,75.16,2.86
Kudahuvadhoo,MV,98,1587771977,76,2.67,72.89,83.55,12.46
Novoul'yanovsk,RU,100,1587771977,69,54.15,48.39,35.6,8.95
Guerrero Negro,MX,3,1587771977,34,27.98,-114.06,79.05,15.17
Mumford,GH,36,1587771978,85,5.26,-0.76,81.27,8.48
Havelock,US,40,1587771811,69,34.88,-76.9,73.99,10.29
Auki,SB,57,1587771978,68,-8.77,160.7,84.58,4.45
Narsaq,GL,100,1587771978,31,60.92,-46.05,50.0,24.16
Castro,BR,1,1587771930,69,-24.79,-50.01,58.73,2.98
Qinhuangdao,CN,69,1587771978,42,39.93,119.59,53.22,14.72
Belyy Yar,RU,83,1587771978,65,53.6,91.39,44.6,2.24
Kaitangata,NZ,57,1587771978,60,-46.28,169.85,55.0,17.0
Byron Bay,AU,0,1587771979,73,-28.65,153.62,72.0,6.93
Yellowknife,CA,90,1587771979,85,62.46,-114.35,23.0,10.29
Ponta do Sol,PT,20,1587771979,63,32.67,-17.1,62.6,5.82
Thompson,CA,40,1587771979,35,55.74,-97.86,39.2,8.05
Tiznit Province,MA,94,1587771979,71,29.58,-9.5,55.18,11.81
Saint George,US,1,1587771954,14,37.1,-113.58,80.01,4.7
Bud,US,40,1587771979,55,39.45,-86.18,66.99,5.82
La Ronge,CA,75,1587771979,86,55.1,-105.28,44.6,4.7
Alyangula,AU,32,1587771979,78,-13.85,136.42,82.4,9.42
Colares,PT,20,1587771980,82,38.8,-9.45,59.0,8.05
Jamālpur,BD,2,1587771980,88,24.92,89.93,69.96,9.93
Turtas,RU,64,1587771980,94,58.94,69.13,31.41,6.46
New Norfolk,AU,100,1587771980,73,-42.78,147.06,61.0,3.0
Sabang,ID,58,1587771980,70,5.89,95.32,83.95,3.15
Maceió,BR,20,1587771788,88,-9.67,-35.74,77.0,8.55
Honiara,SB,20,1587771980,79,-9.43,159.95,84.2,4.7
Champerico,GT,75,1587771980,55,14.3,-91.92,89.6,6.93
Longyearbyen,SJ,59,1587771980,52,78.22,15.64,19.4,11.41
Vaini,TO,40,1587771981,79,-21.2,-175.2,84.2,2.24
Sinnamary,GF,94,1587771981,82,5.38,-52.95,78.6,12.24
Tuatapere,NZ,59,1587771981,87,-46.13,167.68,52.0,11.99
Arraial do Cabo,BR,0,1587771981,67,-22.97,-42.03,74.28,10.33
Imbituba,BR,40,1587771981,83,-28.24,-48.67,73.4,9.17
Codrington,AU,97,1587771981,74,-38.27,141.97,60.31,16.02
Iqaluit,CA,90,1587771981,89,63.75,-68.51,32.0,12.75
Chui,UY,86,1587771981,73,-33.7,-53.46,69.39,7.74
Lagoa,PT,100,1587771981,89,39.05,-27.98,61.74,14.85
Hambantota,LK,52,1587771982,80,6.12,81.12,81.3,11.01
Moree,AU,0,1587771982,43,-29.47,149.85,69.8,7.45
Hobart,AU,75,1587771982,62,-42.88,147.33,61.0,5.82
Nouadhibou,MR,18,1587771982,77,20.93,-17.03,64.4,16.11
Codó,BR,92,1587771982,94,-4.46,-43.89,75.16,0.94
Saint-Augustin,CA,28,1587771982,94,51.23,-58.65,30.38,18.41
Paamiut,GL,90,1587771982,88,61.99,-49.67,34.88,3.24
Goygol,AZ,90,1587771982,87,40.59,46.32,44.6,2.24
Cabo San Lucas,MX,5,1587771816,19,22.89,-109.91,89.6,11.41
George Town,MY,20,1587771729,100,5.41,100.34,80.6,3.36
Sokoni,TZ,66,1587771983,77,-6.43,39.55,82.4,11.32
Banikoara,BJ,62,1587771983,45,11.3,2.44,87.8,8.23
Butaritari,KI,96,1587771983,82,3.07,172.79,81.61,20.11
Wuwei,CN,18,1587771983,16,37.93,102.64,48.0,6.8
Broome,US,90,1587771983,76,42.25,-75.83,50.0,6.93
Pimentel,PE,3,1587771983,78,-6.84,-79.93,70.09,11.59
Lüderitz,NA,0,1587771983,88,-26.65,15.16,62.6,2.24
Batagay,RU,90,1587771984,89,67.63,134.63,30.88,1.21
Haimen,CN,40,1587771984,88,23.19,116.61,64.4,2.24
Torbay,CA,20,1587771984,59,47.67,-52.73,37.99,12.75
Obihiro,JP,75,1587771984,49,42.92,143.2,46.4,5.82
Ürümqi,CN,0,1587771984,6,43.8,87.6,73.4,22.37
Riyadh,SA,5,1587771835,28,24.69,46.72,86.0,5.82
Mossamedes,AO,0,1587771984,68,-15.2,12.15,74.55,5.46
Namatanai,PG,55,1587771984,74,-3.67,152.43,84.0,8.46
Cayenne,GF,20,1587771985,83,4.93,-52.33,77.0,3.36
Avera,US,1,1587771985,60,33.19,-82.53,73.4,3.36
Biltine,TD,3,1587771985,10,14.53,20.92,80.42,10.78
Ancud,CL,90,1587771985,100,-41.87,-73.82,55.99,10.29
Ukiah,US,1,1587771985,26,39.15,-123.21,82.4,12.75
Maniitsoq,GL,100,1587771985,82,65.42,-52.9,35.91,7.96
Nosy Varika,MG,11,1587771985,90,-20.58,48.53,71.19,6.2
Sedro-Woolley,US,93,1587771791,70,48.5,-122.24,61.0,4.81
Bengkulu,ID,88,1587771985,82,-3.8,102.27,77.72,4.21
Yenagoa,NG,99,1587771831,91,4.92,6.26,78.48,3.71
Farafangana,MG,9,1587771986,85,-22.82,47.83,70.72,4.36
Chalmette,US,1,1587771986,42,29.94,-89.96,82.4,8.05
Viranşehir,TR,100,1587771986,77,37.24,39.76,53.1,6.13
Xining,CN,27,1587771986,26,36.62,101.77,39.65,3.13
San Quintín,MX,0,1587771986,55,30.48,-115.95,71.85,5.88
Grenfell,AU,0,1587771986,53,-33.9,148.17,64.92,4.92
Saint-Philippe,RE,90,1587771986,83,-21.36,55.77,73.4,6.93
Maralal,KE,100,1587771986,62,1.1,36.7,58.41,1.36
Krasnokamensk,RU,12,1587771986,43,50.1,118.04,43.86,10.47
Camacha,PT,40,1587771987,67,33.08,-16.33,60.8,11.41
Souillac,MU,75,1587771987,94,-20.52,57.52,75.2,1.12
Beloha,MG,1,1587771987,87,-25.17,45.05,69.04,9.73
Oxford,GB,30,1587771987,62,51.75,-1.26,53.6,6.93
Pisco,PE,0,1587771987,73,-13.7,-76.22,71.6,16.11
Qaanaaq,GL,98,1587771987,87,77.48,-69.36,19.17,1.28
Ulcinj,ME,0,1587771987,81,41.93,19.22,53.6,2.24
Ikon-Khalk,RU,0,1587771987,58,44.31,41.91,40.41,4.21
Verkhoyansk,RU,99,1587771987,91,67.54,133.38,30.78,3.65
Cape Town,ZA,12,1587771967,72,-33.93,18.42,64.4,19.46
Manokwari,ID,46,1587771988,66,-0.87,134.08,84.65,1.34
Clyde River,CA,75,1587771988,85,70.47,-68.59,12.2,13.87
Carnarvon,AU,99,1587771988,67,-24.87,113.63,73.2,25.17
Itararé,BR,9,1587771988,90,-24.11,-49.33,66.0,4.65
Dohad,IN,0,1587771988,40,22.83,74.27,75.09,6.82
Itarema,BR,95,1587771988,87,-2.92,-39.92,77.45,3.31
Chardara,KZ,98,1587771989,67,41.25,67.97,61.45,9.24
Sorong,ID,43,1587771989,71,-0.88,131.25,85.1,2.59
Flin Flon,CA,75,1587771989,39,54.77,-101.86,48.2,4.7
Lavrentiya,RU,13,1587771989,94,65.58,-171.0,28.81,7.07
Hilo,US,75,1587771807,54,19.73,-155.09,80.6,8.05
Harper,LR,100,1587771989,87,4.38,-7.72,79.3,8.93
Jining,CN,0,1587771989,33,35.41,116.58,59.59,8.63
São Filipe,CV,74,1587771989,76,14.9,-24.5,71.1,16.93
Virginia Beach,US,75,1587771450,87,36.85,-75.98,60.8,10.29
Ca Mau,VN,92,1587771794,72,9.18,105.15,84.02,13.65
Hithadhoo,MV,95,1587771990,76,-0.6,73.08,83.8,18.07
The Pas,CA,1,1587771844,49,53.83,-101.25,46.4,5.82
Naryan-Mar,RU,61,1587771990,96,67.67,53.09,23.2,19.46
Barra de Tecoanapa,MX,10,1587771990,60,16.52,-98.75,83.41,9.84
Kasempa,ZM,48,1587771990,53,-13.46,25.83,59.45,4.34
Taltal,CL,7,1587771990,70,-25.4,-70.48,62.15,3.62
Hay River,CA,90,1587771990,85,60.82,-115.8,24.8,10.29
Savannah Bight,HN,3,1587771990,83,16.45,-85.85,82.85,23.22
Pevek,RU,96,1587771990,90,69.7,170.31,22.6,7.81
Mar del Plata,AR,75,1587771829,93,-38.0,-57.56,64.99,5.82
Port Hardy,CA,90,1587771919,67,50.7,-127.42,57.2,10.29
Tromsø,NO,90,1587771991,95,69.65,18.96,32.0,43.62
Yarovoy,RU,100,1587771991,74,52.93,78.58,48.0,13.49
Asunción Ixtaltepec,MX,0,1587771991,60,16.5,-95.05,85.75,9.66
Bubaque,GW,100,1587771991,73,11.28,-15.83,77.05,15.95
Saint-Pierre,RE,90,1587771991,83,-21.34,55.48,73.4,6.93
Rocha,UY,88,1587771991,77,-34.48,-54.33,68.0,5.84
Abéché,TD,1,1587771991,10,13.83,20.83,80.44,10.96
Encruzilhada do Sul,BR,50,1587771991,53,-30.54,-52.52,61.11,2.46
Chisec,GT,14,1587771992,32,15.82,-90.28,91.85,0.94
Bandarbeyla,SO,85,1587771992,74,9.49,50.81,81.9,7.45
Gobabis,NA,80,1587771992,55,-22.45,18.97,62.6,3.36
Rome,US,90,1587771809,53,43.21,-75.46,51.8,4.7
East London,ZA,79,1587771992,83,-33.02,27.91,66.61,11.18
Ilulissat,GL,0,1587771992,42,69.22,-51.1,48.2,19.46
Misratah,LY,0,1587771992,76,32.38,15.09,62.42,3.49
Waingapu,ID,11,1587771992,73,-9.66,120.26,82.45,16.51
La Palma,US,40,1587771992,18,33.85,-118.05,100.4,11.41
Bintulu,MY,75,1587771993,94,3.17,113.03,77.0,4.7
Salalah,OM,75,1587771993,79,17.02,54.09,84.2,4.7
Pangai,TO,75,1587771993,74,-19.8,-174.35,84.2,5.82
Bethel,US,75,1587771993,87,41.37,-73.41,48.0,3.36
Mana,GF,83,1587771993,86,5.66,-53.78,76.69,8.21
Nogales,MX,1,1587771993,14,31.31,-110.94,89.6,4.7
Vilyuysk,RU,94,1587771993,86,63.76,121.62,34.21,4.38
Sinaloa,MX,5,1587771993,33,25.0,-107.5,89.01,10.29
Westport,US,75,1587771993,76,41.14,-73.36,48.99,8.05
Nuuk,GL,100,1587771942,89,64.18,-51.72,37.4,4.7
Inuvik,CA,20,1587771904,50,68.35,-133.72,6.8,6.93
Lujiang,CN,82,1587771994,62,31.26,117.28,64.0,11.18
Sola,VU,75,1587771994,83,-13.88,167.55,84.2,18.75
Nanortalik,GL,92,1587771994,72,60.14,-45.24,39.76,26.71
Buala,SB,47,1587771994,69,-8.14,159.59,85.06,7.31
Huarmey,PE,39,1587771994,72,-10.07,-78.15,71.42,6.46
Teya,RU,100,1587771994,67,60.38,92.63,47.97,4.97
San Rafael,AR,37,1587771994,35,-34.62,-68.33,64.33,8.23
Lexington,US,20,1587771724,63,37.99,-84.48,62.6,4.7
Isangel,VU,75,1587771994,74,-19.55,169.27,78.8,6.93
Deputatsky,RU,3,1587771994,91,69.3,139.9,20.5,1.36
Adrar,MR,60,1587771995,17,20.5,-10.07,81.01,11.3
Kovūr,IN,27,1587771995,75,14.48,79.98,81.41,8.86
Constitución,CL,71,1587771995,90,-35.33,-72.42,57.92,11.27
Rumoi,JP,67,1587771995,62,43.93,141.64,43.47,9.66
Norman Wells,CA,75,1587771995,51,65.28,-126.83,14.0,14.99
Cidreira,BR,70,1587771995,87,-30.18,-50.21,69.62,15.82
Dzilam González,MX,61,1587771995,78,21.28,-88.93,87.01,10.58
Kruisfontein,ZA,96,1587771995,83,-34.0,24.73,58.57,7.47
Katsuura,JP,20,1587771995,58,35.13,140.3,57.0,3.36
Tazovsky,RU,13,1587771995,95,67.47,78.7,18.5,9.62
Sept-Îles,CA,75,1587771732,44,50.2,-66.38,39.2,11.41
Wahpeton,US,45,1587771996,17,46.27,-96.61,64.99,4.7
Bambous Virieux,MU,75,1587771996,94,-20.34,57.76,75.99,1.12
Taoudenni,ML,12,1587771996,16,22.68,-3.98,88.2,12.26
Chekhov,RU,79,1587771996,86,55.14,37.47,41.0,4.47
Kavieng,PG,32,1587771996,74,-2.57,150.8,83.93,6.38
Panabá,MX,71,1587771996,66,21.28,-88.27,84.87,1.81
Korba,IN,9,1587771787,61,22.35,82.68,74.84,2.91
Mandan,US,20,1587771904,50,46.83,-100.89,60.8,12.75
Whitehorse,CA,75,1587771924,36,60.72,-135.05,46.4,11.41
Say,NE,44,1587771997,23,13.1,2.37,96.8,5.82
Nyurba,RU,91,1587771997,77,63.28,118.33,38.91,3.76
Praia da Vitória,PT,75,1587771997,77,38.73,-27.07,62.6,13.4
Cap Malheureux,MU,100,1587771997,92,-19.98,57.61,75.99,1.01
Makakilo City,US,90,1587771997,88,21.35,-158.09,82.4,12.75
Doha,QA,0,1587771800,78,25.29,51.53,82.0,3.36
Ketchikan,US,90,1587771997,93,55.34,-131.65,48.2,16.11
Vanimo,PG,0,1587771997,68,-2.67,141.3,84.79,2.59
Kibaya,TZ,85,1587771997,67,-5.3,36.57,59.76,2.98
Hong Kong,HK,40,1587771919,88,22.29,114.16,64.99,9.17
Kortrijk,BE,1,1587771998,88,50.83,3.26,45.0,5.01
Boende,CD,6,1587771998,66,-0.22,20.87,75.92,0.92
Talnakh,RU,75,1587771998,86,69.49,88.4,28.4,8.95
Tocopilla,CL,30,1587771998,42,-22.09,-70.2,70.74,7.2
Tawang Town,IN,62,1587771998,30,27.58,91.87,39.51,2.66
Chilca,PE,0,1587771998,73,-12.52,-76.74,71.6,12.75
Smithers,CA,75,1587771998,32,54.78,-127.17,55.4,4.7
Palagiano,IT,5,1587771998,87,40.58,17.04,55.99,2.24
Tvøroyri,FO,18,1587771999,87,61.56,-6.81,42.8,10.29
Bara,NG,41,1587771999,50,10.37,10.73,86.29,10.31
Aksu,CN,48,1587771999,36,41.12,80.26,59.34,3.2
Castletown,IE,85,1587771999,87,53.03,-9.07,53.6,5.82
Saint Anthony,US,90,1587771999,58,45.02,-93.22,64.99,12.75
Alofi,NU,28,1587771999,74,-19.06,-169.92,86.0,10.29
Vila Franca do Campo,PT,40,1587771999,82,37.72,-25.43,60.8,4.7
Hunchun,CN,100,1587771999,82,42.87,130.36,39.92,2.53
Holbeach,GB,0,1587771999,86,52.8,0.01,45.0,1.99
Pringsewu,ID,100,1587772000,86,-5.36,104.97,75.54,0.98
Sudak,UA,0,1587772000,55,44.85,34.97,46.4,2.84
Padang,ID,100,1587772000,78,-0.95,100.35,78.94,3.47
Pekan,MY,20,1587772000,94,3.48,103.4,77.0,4.7
Faanui,PF,31,1587772000,77,-16.48,-151.75,81.36,12.46
Plettenberg Bay,ZA,90,1587772000,82,-34.05,23.37,62.31,3.31
Flinders,AU,0,1587772000,60,-34.58,150.86,72.0,5.01
Gorom-Gorom,BF,80,1587772000,22,14.44,-0.24,94.06,7.27
Margherita,IN,55,1587772000,80,27.28,95.68,65.52,1.74
Hasaki,JP,20,1587772000,62,35.73,140.83,55.99,4.7
Kroonstad,ZA,89,1587772001,34,-27.65,27.23,62.35,1.57
Berdigestyakh,RU,58,1587772001,86,62.1,126.7,33.13,4.65
Jumla,NP,9,1587772001,29,29.27,82.18,44.08,3.02
Ituaçu,BR,52,1587772001,67,-13.81,-41.3,70.07,4.97
Quatre Cocos,MU,75,1587772001,94,-20.21,57.76,75.99,1.12
Challapata,BO,0,1587772001,13,-18.9,-66.77,49.73,0.72
Fort Nelson,CA,75,1587772001,35,58.81,-122.7,55.4,6.93
Ponta Delgada,PT,40,1587772001,82,37.73,-25.67,60.8,4.7
Japura,ID,100,1587772001,92,-0.32,102.35,75.49,1.59
Kapoeta,SS,100,1587772001,38,4.77,33.59,79.29,8.25
Nome,US,1,1587772002,59,64.5,-165.41,37.4,12.75
Kloulklubed,PW,75,1587772002,88,7.04,134.26,80.6,11.41
Torres,BR,82,1587772002,78,-29.34,-49.73,68.74,10.36
Esim,GH,52,1587772002,85,4.87,-2.24,80.74,8.14
Hofn,IS,100,1587772002,83,64.25,-15.21,42.15,17.94
Shelburne,CA,90,1587771919,56,44.08,-80.2,41.0,5.82
Zelenoborskiy,RU,100,1587772002,94,66.84,32.36,27.91,14.16
Baghlan,AF,100,1587772002,52,36.13,68.71,66.4,3.85
Aras,ES,75,1587772002,87,42.56,-2.36,57.2,3.36
Lorengau,PG,3,1587772002,68,-2.02,147.27,85.21,2.95
Zhigansk,RU,94,1587772003,94,66.77,123.37,31.14,6.55
Corn Island,NI,69,1587772003,80,12.17,-83.04,82.38,13.73
Vereeniging,ZA,60,1587772003,80,-26.67,27.93,55.99,2.57
Lanxi,CN,98,1587772003,57,29.22,119.48,62.15,0.74
Sūsangerd,IR,0,1587772003,60,31.56,48.18,75.2,4.7
Puerto Quijarro,BO,17,1587772003,59,-17.78,-57.77,76.84,3.49
Mackay,AU,40,1587771988,54,-21.15,149.2,80.6,16.11
Chipinge,ZW,0,1587772003,60,-20.19,32.62,55.53,3.15
Vung Tau,VN,100,1587772004,72,10.35,107.08,82.24,9.64
Wanning,CN,100,1587772004,88,18.8,110.4,72.79,11.01
Geraldton,AU,90,1587772004,77,-28.77,114.6,68.0,8.05
Charters Towers,AU,0,1587772004,40,-20.1,146.27,78.21,14.7
Camaná,PE,28,1587772004,69,-16.62,-72.71,69.24,5.93
Kozhva,RU,69,1587772004,94,65.11,57.05,18.28,7.63
Cheremisinovo,RU,87,1587772004,75,51.89,37.26,43.61,8.79
Trat,TH,64,1587772005,87,12.5,102.5,77.9,6.24
Faya,SA,16,1587772005,59,18.39,42.45,66.2,3.56
Artyom,AZ,75,1587772005,87,40.47,50.33,48.2,4.7
Sanremo,IT,5,1587772005,93,43.82,7.76,59.0,11.41
La Rioja,ES,75,1587772005,87,42.25,-2.5,57.2,3.36
Novobirilyussy,RU,100,1587772005,45,56.95,90.67,62.55,10.54
Coyhaique,CL,75,1587772005,87,-45.58,-72.07,51.8,2.24
Koz'modem'yansk,RU,75,1587772005,97,56.34,46.57,32.0,11.18
Rørvik,NO,56,1587772006,82,64.86,11.24,40.86,10.83
Pierre,US,90,1587771847,25,44.37,-100.35,66.99,8.05
Labuhan,ID,100,1587772006,80,-6.88,112.21,79.86,3.49
Conde,BR,75,1587772006,94,-7.26,-34.91,77.0,6.93
Rawson,AR,3,1587772006,72,-43.3,-65.1,56.82,12.33
Vardø,NO,75,1587772006,92,70.37,31.11,28.4,29.97
Eišiškės,LT,100,1587772006,70,54.17,25.0,44.01,3.36
Praia,CV,75,1587771928,64,14.92,-23.51,73.4,13.87
Alice Springs,AU,0,1587771715,29,-23.7,133.88,75.2,8.05
Taksimo,RU,0,1587772007,57,56.34,114.88,37.58,0.83
Diffa,NE,4,1587772007,11,13.32,12.61,85.59,8.34
Alta Floresta,BR,90,1587772007,87,-9.88,-56.09,74.16,0.72
Okato,NZ,77,1587772007,54,-39.2,173.88,64.99,5.99
Terney,RU,100,1587772007,58,45.05,136.61,44.78,4.45
Campo Grande,BR,6,1587772007,57,-20.44,-54.65,80.6,8.05
Cherskiy,RU,100,1587772007,97,68.75,161.3,29.43,3.36
Tessalit,ML,63,1587772007,12,20.2,1.01,87.89,7.85
Umm Kaddadah,SD,37,1587772008,11,13.6,26.69,79.63,13.29
Saskylakh,RU,49,1587772008,96,71.92,114.08,30.29,17.22
Korla,CN,32,1587772008,21,41.76,86.15,61.59,2.48
Brigantine,US,90,1587772008,87,39.41,-74.36,53.01,6.93
Half Moon Bay,US,1,1587772008,63,37.46,-122.43,82.4,17.22
Chapais,CA,1,1587772008,24,49.78,-74.85,33.8,8.05
Kisangani,CD,11,1587772008,66,0.52,25.2,73.99,0.81
Semnan,IR,59,1587772009,29,35.57,53.4,64.26,3.31
Khasan,RU,98,1587772009,89,42.43,130.64,39.25,9.04
Boyolangu,ID,100,1587772009,83,-8.12,111.89,79.52,6.46
Mogadishu,SO,99,1587772009,74,2.04,45.34,82.76,8.43
Sambava,MG,71,1587772009,89,-14.27,50.17,74.8,8.46
West Fargo,US,1,1587771917,29,46.88,-96.9,66.2,10.29
Tual,ID,74,1587772009,77,-5.67,132.75,84.04,17.67
Nhulunbuy,AU,79,1587772009,66,-12.23,136.77,86.0,9.17
Fortuna,US,1,1587772009,77,40.6,-124.16,66.99,12.75
Kyrksæterøra,NO,75,1587772009,86,63.29,9.09,41.0,11.41
Kumul,CN,0,1587772010,15,42.8,93.45,59.41,7.63
Abū Zabad,SD,2,1587772010,12,12.35,29.25,77.83,7.2
Bilibino,RU,56,1587772010,86,68.05,166.44,28.76,2.35
Ulladulla,AU,11,1587772010,59,-35.35,150.47,68.0,11.41
Khovu-Aksy,RU,1,1587772010,24,51.13,93.6,53.71,6.78
St. George's,GD,75,1587772011,78,12.06,-61.75,80.6,23.04
Seoul,KR,1,1587771943,47,37.57,126.98,59.0,16.75
Te Anau,NZ,80,1587772011,70,-45.42,167.72,52.72,10.33
Soyo,AO,100,1587772011,87,-6.13,12.37,80.38,6.91
Wronki,PL,100,1587772011,66,52.71,16.38,52.0,5.82
Poum,NC,100,1587772011,78,-20.23,164.02,77.45,16.13
Formosa,AR,0,1587772011,42,-26.18,-58.18,82.4,12.75
Carora,VE,38,1587772011,44,10.18,-70.08,79.57,8.52
Aukra,NO,61,1587772012,75,62.79,6.92,41.0,6.93
Ust'-Omchug,RU,78,1587772012,87,61.15,149.63,25.2,7.25
Nampula,MZ,10,1587772012,89,-15.12,39.27,65.03,3.44
Olinda,BR,75,1587771821,88,-8.01,-34.86,78.8,9.62
Beeville,US,1,1587771901,50,28.4,-97.75,95.0,16.11
Graham,US,90,1587771763,67,47.05,-122.29,60.01,4.7
Ballina,AU,0,1587772012,73,-28.87,153.57,72.0,6.93
Katghora,IN,12,1587772012,60,22.5,82.55,73.83,1.66
Rāwatbhāta,IN,40,1587772012,25,24.93,75.58,80.56,8.57
Rrogozhinë,AL,0,1587772012,93,41.08,19.67,48.2,2.24
Akdepe,TM,90,1587772013,81,42.06,59.38,50.0,6.93
Iskateley,RU,58,1587772013,96,67.68,53.15,22.98,19.55
Banjar,ID,20,1587772013,94,-8.19,114.97,80.6,3.36
Port Macquarie,AU,0,1587772013,67,-31.43,152.92,72.0,1.74
Severo-Kuril'sk,RU,75,1587772013,93,50.68,156.12,32.85,13.49
Kédougou,SN,85,1587772013,22,12.56,-12.17,88.84,2.73
Elko,US,90,1587771724,27,41.0,-115.5,64.4,8.05
Asău,RO,56,1587772013,44,46.43,26.4,48.0,5.75
Henties Bay,NA,66,1587772014,96,-22.12,14.28,57.0,1.01
Dudinka,RU,75,1587772014,86,69.41,86.18,28.4,8.95
Filingué,NE,49,1587772014,22,14.35,3.32,94.87,5.41
Cuiluan,CN,29,1587772014,61,47.72,128.65,39.85,7.52
San Cristobal,VE,59,1587772014,60,7.77,-72.22,71.26,1.14
Gornoye Loo,RU,2,1587772014,81,43.71,39.6,46.0,6.71
Yulara,AU,0,1587772014,31,-25.24,130.99,75.2,5.82
Lashio,MM,99,1587772014,73,22.93,97.75,63.03,0.98
Bossangoa,CF,17,1587772014,67,6.49,17.46,76.1,4.0
Andes,CO,98,1587772014,93,5.66,-75.88,62.01,0.85
Nerchinskiy Zavod,RU,17,1587772014,48,51.31,119.61,41.38,9.13
Halifax,CA,90,1587771989,100,44.65,-63.57,37.0,9.17
Rusape,ZW,0,1587772015,60,-18.53,32.13,51.84,1.05
Kamenka,RU,100,1587772015,53,51.32,42.77,50.0,4.0
Ruteng,ID,87,1587772015,64,-8.61,120.47,70.07,5.41
Tripoli,LY,0,1587772015,74,32.88,13.19,63.5,9.24
Kalmunai,LK,68,1587772015,77,7.42,81.82,81.77,4.92
Neiafu,TO,40,1587772015,79,-18.65,-173.98,84.2,5.82
Bonavista,CA,16,1587772015,80,48.65,-53.11,35.01,10.0
Rock Springs,US,75,1587772015,23,41.59,-109.2,51.8,21.92
Raisen,IN,53,1587772015,24,23.33,77.8,80.8,7.52
Mandera,KE,95,1587772016,72,3.94,41.87,75.76,2.21
Muzhi,RU,75,1587772016,94,65.37,64.67,17.56,6.38
Dergachi,RU,99,1587772016,71,51.23,48.77,46.17,13.6
Uglovoye,UA,0,1587772016,62,44.82,33.6,48.15,5.28
Altamira,BR,99,1587772016,91,-3.2,-52.21,74.82,2.35
Grand Forks,US,75,1587772016,29,47.93,-97.03,64.0,0.85
Brae,GB,98,1587772016,75,60.4,-1.35,42.8,5.82
Mount Isa,AU,0,1587772016,32,-20.73,139.5,84.2,12.75
Teguise,ES,40,1587772016,63,29.06,-13.56,66.2,6.93
Davenda,RU,8,1587772017,49,53.56,119.32,41.45,7.61
Grindavik,IS,75,1587772017,86,63.84,-22.43,41.0,10.29
Yangi Marg`ilon,UZ,100,1587772017,45,40.43,71.72,66.2,4.7
Marsabit,KE,96,1587772017,65,2.33,37.99,66.02,4.68
Vestmannaeyjar,IS,97,1587772017,82,63.44,-20.27,43.2,9.01
Sabalgarh,IN,44,1587772017,30,26.25,77.4,82.76,0.94
Chicama,PE,2,1587772017,67,-7.84,-79.15,72.18,7.18
Port Augusta,AU,78,1587772017,82,-32.5,137.77,66.0,4.7
Makkah al Mukarramah,SA,0,1587771902,31,21.43,39.83,78.51,1.36
Aklavik,CA,5,1587772018,50,68.22,-135.01,8.6,5.82
De-Kastri,RU,100,1587772018,95,51.47,140.78,32.29,4.97
Los Llanos de Aridane,ES,18,1587772018,68,28.66,-17.92,64.4,14.07
Hamilton,US,75,1587772018,52,39.18,-84.53,66.2,3.36
Luwuk,ID,92,1587772018,70,-0.95,122.79,83.62,4.12
Dhidhdhoo,MV,92,1587772018,75,6.88,73.1,84.22,9.84
Lakshmeshwar,IN,93,1587772018,71,15.13,75.47,73.35,9.44
Huéscar,ES,72,1587772018,82,37.81,-2.54,51.01,4.0
Ust'-Kulom,RU,10,1587772019,95,61.69,53.69,18.14,6.11
Jacareacanga,BR,98,1587772019,92,-6.22,-57.75,75.94,0.87
Buchanan,LR,20,1587772019,94,5.88,-10.05,78.8,5.97
Beringovskiy,RU,98,1587772019,96,63.05,179.32,23.16,9.82
Meadow Lake,US,20,1587772019,8,34.8,-106.54,77.0,20.8
Imatra,FI,29,1587772019,93,61.17,28.75,32.0,9.17
Setúbal,PT,20,1587772019,82,38.52,-8.89,59.0,8.05
Umred,IN,40,1587772019,50,20.85,79.33,77.0,4.7
Caravelas,BR,17,1587772019,82,-17.71,-39.25,74.8,16.62
Daru,PG,91,1587772020,73,-9.08,143.21,83.41,12.39
Fallon,US,40,1587772020,17,39.47,-118.78,77.0,14.99
Katangli,RU,96,1587772020,98,51.71,143.23,30.07,5.75
Santa Marta,CO,54,1587771773,74,11.24,-74.2,81.86,16.6
Kalevala,RU,54,1587772020,94,65.2,31.17,26.6,10.25
Erenhot,CN,40,1587772020,34,43.65,111.98,43.0,7.09
Ostrovnoy,RU,100,1587772020,97,68.05,39.51,27.66,15.97
Sioux Lookout,CA,75,1587771815,37,50.1,-91.92,53.6,9.17
Ilebo,CD,89,1587772020,81,-4.32,20.58,73.18,1.59
Tafresh,IR,56,1587772021,33,34.69,50.01,53.78,9.28
Ishigaki,JP,75,1587772021,73,24.34,124.16,69.8,10.29
Rāzām,IN,57,1587772021,81,18.47,83.67,81.18,7.54
Rudnichnyy,RU,58,1587772021,95,59.62,52.47,21.0,5.5
Okhansk,RU,56,1587772021,92,57.72,55.39,24.8,8.95
Orlik,RU,10,1587772021,30,52.52,99.83,47.46,2.82
Kolondiéba,ML,91,1587772021,50,11.09,-6.89,80.82,4.7
Magadan,RU,19,1587772021,91,59.57,150.8,31.06,8.9
Newark,US,90,1587771850,93,40.74,-74.17,50.0,12.75
Wickede,DE,11,1587772021,87,51.48,7.87,46.0,6.93
Etne,NO,2,1587772022,93,59.66,5.93,42.01,1.01
Forsytheganj,BY,91,1587772022,83,52.63,29.73,46.85,7.94
Bālurghāt,IN,1,1587772022,85,25.22,88.77,69.57,7.23
Chokurdakh,RU,7,1587772022,95,70.63,147.92,16.3,1.57
Honningsvåg,NO,100,1587772022,97,70.98,25.97,31.21,40.09
Pimenta Bueno,BR,73,1587771754,85,-11.67,-61.19,75.58,2.17
Maun,BW,21,1587772022,72,-19.98,23.42,62.6,2.24
Yar-Sale,RU,40,1587772022,93,66.83,70.83,18.77,6.93
Severo-Yeniseyskiy,RU,100,1587772022,63,60.37,93.04,46.67,6.2
Bathsheba,BB,4,1587772023,75,13.22,-59.52,79.79,20.38
Sibut,CF,1,1587772023,64,5.72,19.07,76.73,2.3
Oodweyne,SO,100,1587772023,56,9.41,45.06,73.6,5.12
Hobyo,SO,81,1587772023,71,5.35,48.53,83.98,6.64
Beian,NO,75,1587772023,86,63.66,9.57,41.0,11.41
Lucapa,AO,2,1587772023,67,-8.42,20.74,66.06,2.04
St. Pete Beach,US,75,1587771954,94,27.73,-82.74,71.6,18.34
Aljezur,PT,60,1587772023,84,37.32,-8.8,60.01,11.21
Payo,ID,100,1587772023,87,-3.75,103.64,74.1,2.06
Araouane,ML,85,1587772024,10,18.9,-3.53,90.64,10.76
Freetown,SL,97,1587772024,79,8.48,-13.23,79.39,5.44
Murray Bridge,AU,81,1587772024,71,-35.12,139.27,66.99,1.01
Exu,BR,86,1587772024,76,-7.51,-39.72,71.69,6.38
Fangshan,CN,20,1587772024,24,39.7,115.99,64.0,3.0
Malinovoye Ozero,RU,100,1587772024,70,51.68,79.78,51.84,13.11
Adela,PH,11,1587772024,56,12.44,120.97,88.27,9.35
Ust-Tsilma,RU,45,1587772025,94,65.44,52.15,25.12,9.62
Kyra,RU,98,1587772025,35,49.58,111.98,42.19,5.06
Tarbagatay,RU,93,1587772025,58,51.48,107.36,30.2,4.47
Pushkar,IN,0,1587772025,28,26.5,74.55,76.59,6.73
Ambrolauri,GE,70,1587772025,50,42.52,43.16,51.8,26.4
Malé,MV,100,1587772025,76,4.17,73.51,83.57,12.1
Belmonte,BR,40,1587772025,73,-15.86,-38.88,73.4,3.36
Nicoya,CR,40,1587772025,52,10.15,-85.45,89.6,14.99
Jucurutu,BR,99,1587772025,82,-6.03,-37.02,77.76,6.71
Havre-St-Pierre,CA,1,1587772025,96,50.23,-63.6,32.0,20.8
Dingle,PH,63,1587772026,76,11.0,122.67,82.89,13.73
Salinas,US,1,1587772026,46,36.68,-121.66,73.99,12.75
Fremont,US,5,1587771813,34,37.55,-121.99,86.0,14.99
Broken Hill,AU,22,1587772026,46,-31.95,141.43,71.6,11.41
Mombaça,BR,100,1587772026,86,-5.74,-39.63,73.67,1.79
Deniliquin,AU,60,1587772026,80,-35.53,144.97,61.0,3.0
Palm Coast,US,1,1587772026,78,29.59,-81.21,73.0,4.7
Umluj,SA,0,1587772026,29,25.02,37.27,81.99,14.72
Tura,IN,21,1587772026,86,25.52,90.22,63.99,2.62
Whitefish,US,75,1587772026,41,48.41,-114.34,57.2,5.79
Tsimmerbude,RU,43,1587772027,93,54.67,20.13,39.2,4.47
Lukaya,UG,20,1587772027,83,-0.15,31.87,73.4,4.7
Santa Isabel Rio Negro,BR,100,1587772027,94,-0.41,-65.02,76.1,1.74
Menongue,AO,0,1587772027,46,-14.66,17.69,56.1,2.91
Mahébourg,MU,75,1587772027,94,-20.41,57.7,75.2,1.12
Matamoros,MX,5,1587771918,6,25.53,-103.25,96.8,9.17
Damara,CF,2,1587772027,63,4.96,18.7,76.84,1.7
Victoria Point,AU,20,1587772027,69,-27.58,153.3,79.0,8.05
Kochevo,RU,59,1587772027,94,59.6,54.31,21.67,5.77
Hjelset,NO,63,1587772027,75,62.78,7.48,41.0,6.93
Careiro da Várzea,BR,75,1587772028,94,-3.2,-59.81,77.0,8.05
Vestmanna,FO,71,1587772028,87,62.16,-7.17,42.8,6.93
Tagusao,PH,48,1587772028,68,9.19,117.81,84.81,7.47
Mehamn,NO,100,1587772028,97,71.04,27.85,29.35,36.69
Tacuarembó,UY,73,1587772028,52,-31.73,-55.98,69.73,6.89
Gimbi,ET,61,1587772028,23,9.17,35.83,59.09,1.34
Vao,NC,100,1587772028,61,-22.67,167.48,74.32,12.46
Dawei,MM,99,1587772028,77,14.08,98.2,79.97,3.47
Laguna,US,1,1587772029,15,38.42,-121.42,93.2,10.29
Cagliliog,PH,28,1587772029,76,13.9,123.29,82.71,8.72
Ningyang,CN,0,1587772029,32,35.76,116.79,59.14,5.7
Bemidji,US,1,1587771927,29,47.47,-94.88,62.01,8.05
Santa Rosa,PH,20,1587772029,66,14.31,121.11,86.0,5.82
Guozhen,CN,88,1587772029,22,34.37,107.36,63.34,4.34
Sena Madureira,BR,97,1587772029,91,-9.07,-68.66,75.42,1.52
Kretinga,LT,89,1587772029,64,55.88,21.25,39.2,8.05
Teknāf,BD,54,1587772029,84,20.86,92.31,76.91,5.06
Santa Lucía,ES,40,1587772030,68,27.91,-15.54,66.2,13.87
Loei,TH,90,1587772030,94,17.42,101.5,75.0,1.12
Batagay-Alyta,RU,71,1587772030,91,67.8,130.41,25.66,4.65
Kambove,CD,0,1587772030,64,-10.88,26.6,56.64,2.77
Saint-Joseph,RE,90,1587772030,83,-21.37,55.62,73.4,6.93
Matagami,CA,1,1587772030,23,49.75,-77.63,37.4,6.93
Iwanai,JP,8,1587772030,52,42.97,140.51,48.74,3.62
San Fernando del Valle de Catamarca,AR,58,1587772030,50,-28.47,-65.79,74.17,3.38
Hanzhong,CN,100,1587772030,45,33.07,107.03,57.79,1.63
Del Rio,US,1,1587771900,10,29.36,-100.9,102.2,6.93
Noumea,NC,99,1587771990,57,-22.28,166.46,78.01,10.29
Hede,CN,0,1587772031,56,33.77,120.25,61.86,20.6
Carlsbad,US,1,1587771821,69,33.16,-117.35,89.01,9.17
De Aar,ZA,98,1587772031,51,-30.65,24.01,57.92,2.06
Richards Bay,ZA,43,1587772031,85,-28.78,32.04,70.0,10.29
Corinth,GR,0,1587772031,60,37.94,22.96,55.99,1.01
Glendive,US,40,1587772031,62,47.11,-104.71,54.0,9.17
Tongren,CN,93,1587772031,61,27.72,109.19,59.56,1.77
Englewood,US,75,1587771815,33,39.65,-104.99,57.99,13.87
Bukowno,PL,99,1587772032,57,50.26,19.46,55.0,1.99
Goundam,ML,82,1587771997,10,16.41,-3.67,92.21,10.78
Bilma,NE,0,1587772032,11,18.69,12.92,87.58,8.16
Kismayo,SO,100,1587772032,76,-0.36,42.55,82.15,10.94
Bagdarin,RU,0,1587772032,42,54.43,113.6,40.41,2.57
Skibbereen,IE,40,1587772032,81,51.55,-9.27,50.0,5.82
Lékoni,GA,40,1587772032,62,-1.58,14.26,77.88,2.82
Ust'-Ishim,RU,0,1587772032,77,57.69,71.17,35.2,8.61
Djebeniana,TN,13,1587772032,77,35.03,10.91,64.4,4.7
Shemonaīkha,KZ,94,1587772032,33,50.63,81.91,56.43,1.61
Guatire,VE,20,1587772033,78,10.48,-66.54,80.6,5.82
Biak,ID,91,1587772033,72,-0.91,122.88,82.17,4.47
Maumere,ID,95,1587772033,68,-8.62,122.21,83.3,6.85
Sørland,NO,81,1587772033,77,67.67,12.69,37.17,11.59
Medicine Hat,CA,75,1587771793,30,50.05,-110.67,60.01,11.41
